{"ABZ":{"iata":"ABZ","city":"Aberdeen","name":"Aberdeen Airport","country":null,"lat":null,"lon":null},"ADA":{"iata":"ADA","city":"Izmir","name":"Izmir Airport","country":null,"lat":null,"lon":null},"AGP":{"iata":"AGP","city":"Malaga","name":"Malaga Airport","country":null,"lat":null,"lon":null},"ALC":{"iata":"ALC","city":"Alicante","name":"Alicante Airport","country":null,"lat":null,"lon":null},"AMS":{"iata":"AMS","city":"Amsterdam","name":"Amsterdam Airport","country":null,"lat":null,"lon":null},"ATA":{"iata":"ATA","city":"Antalya","name":"Antalya Airport","country":null,"lat":null,"lon":null},"AYT":{"iata":"AYT","city":"Dalaman","name":"Dalaman Airport","country":null,"lat":null,"lon":null},"BCN":{"iata":"BCN","city":"Barcelona","name":"Barcelona Airport","country":null,"lat":null,"lon":null},"BFS":{"iata":"BFS","city":"Belfast International","name":"Belfast International Airport","country":null,"lat":null,"lon":null},"BHD":{"iata":"BHD","city":"Belfast City","name":"Belfast City Airport","country":null,"lat":null,"lon":null},"BLQ":{"iata":"BLQ","city":"Bologna","name":"Bologna Airport","country":null,"lat":null,"lon":null},"BRS":{"iata":"BRS","city":"Bristol","name":"Bristol Airport","country":null,"lat":null,"lon":null},"CDG":{"iata":"CDG","city":"Paris Charles de Gaulle","name":"Paris Charles de Gaulle Airport","country":null,"lat":null,"lon":null},"CFU":{"iata":"CFU","city":"Corfu","name":"Corfu Airport","country":null,"lat":null,"lon":null},"CUN":{"iata":"CUN","city":"Cancun","name":"Cancun Airport","country":null,"lat":null,"lon":null},"DAA":{"iata":"DAA","city":"Sharm el Sheikh","name":"Sharm el Sheikh Airport","country":null,"lat":null,"lon":null},"DLM":{"iata":"DLM","city":"Dalaman","name":"Dalaman Airport","country":null,"lat":null,"lon":null},"EDI":{"iata":"EDI","city":"Edinburgh","name":"Edinburgh Airport","country":null,"lat":null,"lon":null},"FAO":{"iata":"FAO","city":"Faro","name":"Faro Airport","country":null,"lat":null,"lon":null},"FCO":{"iata":"FCO","city":"Rome","name":"Rome Airport","country":null,"lat":null,"lon":null},"FNC":{"iata":"FNC","city":"Madeira","name":"Madeira Airport","country":null,"lat":null,"lon":null},"FUE":{"iata":"FUE","city":"Fuerteventura","name":"Fuerteventura Airport","country":null,"lat":null,"lon":null},"GLA":{"iata":"GLA","city":"Glasgow","name":"Glasgow Airport","country":null,"lat":null,"lon":null},"HRG":{"iata":"HRG","city":"Hurghada","name":"Hurghada Airport","country":null,"lat":null,"lon":null},"INV":{"iata":"INV","city":"Inverness","name":"Inverness Airport","country":null,"lat":null,"lon":null},"IOM":{"iata":"IOM","city":"Isle of Man","name":"Isle of Man Airport","country":null,"lat":null,"lon":null},"JER":{"iata":"JER","city":"Jersey","name":"Jersey Airport","country":null,"lat":null,"lon":null},"KRK":{"iata":"KRK","city":"Krakow","name":"Krakow Airport","country":null,"lat":null,"lon":null},"LIN":{"iata":"LIN","city":"Milan","name":"Milan Airport","country":null,"lat":null,"lon":null},"LIS":{"iata":"LIS","city":"Lisbon","name":"Lisbon Airport","country":null,"lat":null,"lon":null},"LPA":{"iata":"LPA","city":"Gran Canaria","name":"Gran Canaria Airport","country":null,"lat":null,"lon":null},"MAN":{"iata":"MAN","city":"Manchester","name":"Manchester Airport","country":null,"lat":null,"lon":null},"MME":{"iata":"MME","city":"Teesside","name":"Teesside Airport","country":null,"lat":null,"lon":null},"MUC":{"iata":"MUC","city":"Munich","name":"Munich Airport","country":null,"lat":null,"lon":null},"NAP":{"iata":"NAP","city":"Naples","name":"Naples Airport","country":null,"lat":null,"lon":null},"NCL":{"iata":"NCL","city":"Newcastle","name":"Newcastle Airport","country":null,"lat":null,"lon":null},"OLB":{"iata":"OLB","city":"Olbia","name":"Olbia Airport","country":null,"lat":null,"lon":null},"ORY":{"iata":"ORY","city":"Paris Orly","name":"Paris Orly Airport","country":null,"lat":null,"lon":null},"PMI":{"iata":"PMI","city":"Palma de Mallorca","name":"Palma de Mallorca Airport","country":null,"lat":null,"lon":null},"PSA":{"iata":"PSA","city":"Pisa","name":"Pisa Airport","country":null,"lat":null,"lon":null},"RHO":{"iata":"RHO","city":"Rhodes","name":"Rhodes Airport","country":null,"lat":null,"lon":null},"SKG":{"iata":"SKG","city":"Thessaloniki","name":"Thessaloniki Airport","country":null,"lat":null,"lon":null},"SSH":{"iata":"SSH","city":"Sharm el Sheikh","name":"Sharm el Sheikh Airport","country":null,"lat":null,"lon":null},"TFS":{"iata":"TFS","city":"Tenerife South","name":"Tenerife South Airport","country":null,"lat":null,"lon":null},"VIE":{"iata":"VIE","city":"Vienna","name":"Vienna Airport","country":null,"lat":null,"lon":null},"ZRH":{"iata":"ZRH","city":"Zurich","name":"Zurich Airport","country":null,"lat":null,"lon":null}}